[
    {
        "baths": "3",
        "beds": "3",
        "lat": 52.4430602306,
        "lon": -1.9292659162,
        "price": "\u00a3675 pw",
        "receptions": "1",
        "source": "King & Co",
        "title": "Elliott Apartments Selly Hill Road BI...",
        "url": "https://www.kingandcoproperties.com/properties/17895960/lettings"
    },
    {
        "baths": "1",
        "beds": "1",
        "lat": 52.4243964324,
        "lon": -1.9332623223,
        "price": "\u00a3200 pw",
        "receptions": "1",
        "source": "King & Co",
        "title": "225A Mary Vale Road",
        "url": "https://www.kingandcoproperties.com/properties/14581612/lettings"
    },
    {
        "baths": "3",
        "beds": "3",
        "lat": 52.4430602306,
        "lon": -1.9292659162,
        "price": "\u00a3585 pw",
        "receptions": "1",
        "source": "King & Co",
        "title": "Selly Hill Road",
        "url": "https://www.kingandcoproperties.com/properties/15101732/lettings"
    },
    {
        "baths": "3",
        "beds": "3",
        "lat": 52.4407233418,
        "lon": -1.930122883,
        "price": "\u00a3540 pw",
        "receptions": "1",
        "source": "King & Co",
        "title": "The Annexe, 277 Tiverton Road BILLS I...",
        "url": "https://www.kingandcoproperties.com/properties/17896120/lettings"
    },
    {
        "baths": "1",
        "beds": "1",
        "lat": 52.4379261204,
        "lon": -1.92789136,
        "price": "\u00a3775 pcm",
        "receptions": "1",
        "source": "King & Co",
        "title": "57a RADDLEBARN ROAD ",
        "url": "https://www.kingandcoproperties.com/properties/11887917/lettings"
    },
    {
        "baths": "1",
        "beds": "1",
        "lat": 52.4349002043,
        "lon": -1.918348074,
        "price": "\u00a3750 pcm",
        "receptions": "1",
        "source": "King & Co",
        "title": "1087 Pershore Road ",
        "url": "https://www.kingandcoproperties.com/properties/13966617/lettings"
    },
    {
        "baths": "8",
        "beds": "8",
        "lat": 52.4433835353,
        "lon": -1.9287063485,
        "price": "\u00a31,280 pw",
        "receptions": "1",
        "source": "King & Co",
        "title": "42 Rookery Road Part Bills Included",
        "url": "https://www.kingandcoproperties.com/properties/14715565/lettings"
    },
    {
        "baths": "6",
        "beds": "6",
        "lat": 52.4408520836,
        "lon": -1.9290983677,
        "price": "\u00a3942 pw",
        "receptions": "1",
        "source": "King & Co",
        "title": "170 DAWLISH ROAD ALL BILLS INC.",
        "url": "https://www.kingandcoproperties.com/properties/11798644/lettings"
    },
    {
        "baths": "6",
        "beds": "6",
        "lat": 52.4461763863,
        "lon": -1.9348142717,
        "price": "\u00a3906 pw",
        "receptions": "1",
        "source": "King & Co",
        "title": "29 North Road Part Bills Included",
        "url": "https://www.kingandcoproperties.com/properties/14715679/lettings"
    },
    {
        "baths": "4",
        "beds": "6",
        "lat": 52.4398299701,
        "lon": -1.9291536444,
        "price": "\u00a3900 pw",
        "receptions": "1",
        "source": "King & Co",
        "title": "277 Tiverton Road BILLS INCLUDED",
        "url": "https://www.kingandcoproperties.com/properties/14601740/lettings"
    },
    {
        "baths": "6",
        "beds": "6",
        "lat": 52.4429815711,
        "lon": -1.9331499456,
        "price": "\u00a3870 pw",
        "receptions": "1",
        "source": "King & Co",
        "title": "3 Totnes Grove All Bills Included",
        "url": "https://www.kingandcoproperties.com/properties/17551825/lettings"
    },
    {
        "baths": "8",
        "beds": "8",
        "lat": 52.4410096142,
        "lon": -1.925675869,
        "price": "\u00a31,160 pw",
        "receptions": "1",
        "source": "King & Co",
        "title": "178 Bournbrook Road All Bills Included",
        "url": "https://www.kingandcoproperties.com/properties/17551579/lettings"
    },
    {
        "baths": "3",
        "beds": "8",
        "lat": 52.4447600376,
        "lon": -1.9302146329,
        "price": "\u00a31,024 pw",
        "receptions": "2",
        "source": "King & Co",
        "title": "58 Harrow Road Part Bills Inc.",
        "url": "https://www.kingandcoproperties.com/properties/16269315/lettings"
    },
    {
        "baths": "8",
        "beds": "8",
        "lat": 52.4442006221,
        "lon": -1.9333399895,
        "price": "\u00a31,024 pw",
        "receptions": "1",
        "source": "King & Co",
        "title": "31 Tiverton Road Part Bills Inc.",
        "url": "https://www.kingandcoproperties.com/properties/14708608/lettings"
    },
    {
        "baths": "4",
        "beds": "9",
        "lat": 52.4444361761,
        "lon": -1.930072894,
        "price": "\u00a3999 pw",
        "receptions": "1",
        "source": "King & Co",
        "title": "81 Harrow Road",
        "url": "https://www.kingandcoproperties.com/properties/16070699/lettings"
    },
    {
        "baths": "7",
        "beds": "7",
        "lat": 52.4407524356,
        "lon": -1.9338300127,
        "price": "\u00a3994 pw",
        "receptions": "1",
        "source": "King & Co",
        "title": "58 Heeley Road",
        "url": "https://www.kingandcoproperties.com/properties/17555235/lettings"
    },
    {
        "baths": "7",
        "beds": "7",
        "lat": 52.4401084981,
        "lon": -1.9333633131,
        "price": "\u00a3994 pw",
        "receptions": "1",
        "source": "King & Co",
        "title": "128 Heeley Road",
        "url": "https://www.kingandcoproperties.com/properties/17555201/lettings"
    },
    {
        "baths": "9",
        "beds": "9",
        "lat": 52.4407233418,
        "lon": -1.930122883,
        "price": "\u00a3990 pw",
        "receptions": "1",
        "source": "King & Co",
        "title": "203 Tiverton Road",
        "url": "https://www.kingandcoproperties.com/properties/18118999/lettings"
    },
    {
        "baths": "3",
        "beds": "9",
        "lat": 52.4443250162,
        "lon": -1.9299487445,
        "price": "\u00a3981 pw",
        "receptions": "1",
        "source": "King & Co",
        "title": "78 Harrow Road Part Bills Inc.",
        "url": "https://www.kingandcoproperties.com/properties/14705541/lettings"
    },
    {
        "baths": "7",
        "beds": "7",
        "lat": 52.442106826,
        "lon": -1.9284877297,
        "price": "\u00a3980 pw",
        "receptions": "1",
        "source": "King & Co",
        "title": "7 Elliott Villas",
        "url": "https://www.kingandcoproperties.com/properties/14632223/lettings"
    },
    {
        "baths": "7",
        "beds": "7",
        "lat": 52.4421572378,
        "lon": -1.9281565623,
        "price": "\u00a3980 pw",
        "receptions": "1",
        "source": "King & Co",
        "title": "11 Elliott Villas",
        "url": "https://www.kingandcoproperties.com/properties/14627867/lettings"
    },
    {
        "baths": "7",
        "beds": "7",
        "lat": 52.4423504486,
        "lon": -1.9278489249,
        "price": "\u00a3980 pw",
        "receptions": "1",
        "source": "King & Co",
        "title": "9 Elliott Villas",
        "url": "https://www.kingandcoproperties.com/properties/14623845/lettings"
    },
    {
        "baths": "7",
        "beds": "7",
        "lat": 52.4400144534,
        "lon": -1.9324041693,
        "price": "\u00a3980 pw",
        "receptions": "1",
        "source": "King & Co",
        "title": "101 Heeley Road All Bills Included",
        "url": "https://www.kingandcoproperties.com/properties/12882594/lettings"
    },
    {
        "baths": "7",
        "beds": "7",
        "lat": 52.4422124003,
        "lon": -1.9280040264,
        "price": "\u00a3980 pw",
        "receptions": "1",
        "source": "King & Co",
        "title": "13 Elliot Villas ",
        "url": "https://www.kingandcoproperties.com/properties/12764345/lettings"
    },
    {
        "baths": "3",
        "beds": "8",
        "lat": 52.4444361761,
        "lon": -1.930072894,
        "price": "\u00a3976 pw",
        "receptions": "2",
        "source": "King & Co",
        "title": "78 Harrow Road Part Bills Inc.",
        "url": "https://www.kingandcoproperties.com/properties/16269498/lettings"
    },
    {
        "baths": "7",
        "beds": "7",
        "lat": 52.42737,
        "lon": -1.93978,
        "price": "\u00a3966 pw",
        "receptions": "1",
        "source": "King & Co",
        "title": "35 CROYDON ROAD",
        "url": "https://www.kingandcoproperties.com/properties/11822227/lettings"
    },
    {
        "baths": "4",
        "beds": "8",
        "lat": 52.4425815425,
        "lon": -1.9343518493,
        "price": "\u00a3960 pw",
        "receptions": "1",
        "source": "King & Co",
        "title": "16 Dartmouth Road ",
        "url": "https://www.kingandcoproperties.com/properties/12689539/lettings"
    },
    {
        "baths": "8",
        "beds": "8",
        "lat": 52.4412085168,
        "lon": -1.9310295582,
        "price": "\u00a3960 pw",
        "receptions": "1",
        "source": "King & Co",
        "title": "168 TIVERTON ROAD",
        "url": "https://www.kingandcoproperties.com/properties/11765789/lettings"
    },
    {
        "baths": "3",
        "beds": "8",
        "lat": 52.4422982717,
        "lon": -1.9321075728,
        "price": "\u00a3952 pw",
        "receptions": "1",
        "source": "King & Co",
        "title": "130 Tiverton Road Part Bills Inc.",
        "url": "https://www.kingandcoproperties.com/properties/14710512/lettings"
    },
    {
        "baths": "3",
        "beds": "8",
        "lat": 52.4423784561,
        "lon": -1.9321948032,
        "price": "\u00a3952 pw",
        "receptions": "1",
        "source": "King & Co",
        "title": "128 Tiverton Road Part Bills Inc.",
        "url": "https://www.kingandcoproperties.com/properties/14503722/lettings"
    },
    {
        "baths": "3",
        "beds": "9",
        "lat": 52.4355542963,
        "lon": -1.9283688068,
        "price": "\u00a3945 pw",
        "receptions": "1",
        "source": "King & Co",
        "title": "34 UMBERSLADE ROAD ALL BILLS INCLUDED",
        "url": "https://www.kingandcoproperties.com/properties/11806738/lettings"
    },
    {
        "baths": "3",
        "beds": "9",
        "lat": 52.4428690651,
        "lon": -1.9320593654,
        "price": "\u00a3945 pw",
        "receptions": "1",
        "source": "King & Co",
        "title": "111 TIVERTON ROAD",
        "url": "https://www.kingandcoproperties.com/properties/11719304/lettings"
    },
    {
        "baths": "6",
        "beds": "6",
        "lat": 52.4408520836,
        "lon": -1.9290983677,
        "price": "\u00a3942 pw",
        "receptions": "1",
        "source": "King & Co",
        "title": "170 DAWLISH ROAD ALL BILLS INC.",
        "url": "https://www.kingandcoproperties.com/properties/11798644/lettings"
    },
    {
        "baths": "8",
        "beds": "8",
        "lat": 52.4446871698,
        "lon": -1.9288513751,
        "price": "\u00a3936 pw",
        "receptions": "1",
        "source": "King & Co",
        "title": "53 Alton Road",
        "url": "https://www.kingandcoproperties.com/properties/18120247/lettings"
    },
    {
        "baths": "8",
        "beds": "8",
        "lat": 52.4397508897,
        "lon": -1.927564757,
        "price": "\u00a3936 pw",
        "receptions": "1",
        "source": "King & Co",
        "title": "317 Dawlish Road",
        "url": "https://www.kingandcoproperties.com/properties/18097403/lettings"
    },
    {
        "baths": "3",
        "beds": "9",
        "lat": 52.4447494779,
        "lon": -1.9278214109,
        "price": "\u00a3927 pw",
        "receptions": "1",
        "source": "King & Co",
        "title": "54 Bournbrook Road",
        "url": "https://www.kingandcoproperties.com/properties/18119890/lettings"
    },
    {
        "baths": "3",
        "beds": "9",
        "lat": 52.4427134094,
        "lon": -1.9319725295,
        "price": "\u00a3927 pw",
        "receptions": "1",
        "source": "King & Co",
        "title": "119 Tiverton Road Part Bills Inc.",
        "url": "https://www.kingandcoproperties.com/properties/14708821/lettings"
    },
    {
        "baths": "3",
        "beds": "8",
        "lat": 52.4423697021,
        "lon": -1.9321799055,
        "price": "\u00a3920 pw",
        "receptions": "1",
        "source": "King & Co",
        "title": "119 Tiverton Road Part Bills Inc.",
        "url": "https://www.kingandcoproperties.com/properties/16269720/lettings"
    },
    {
        "baths": "5",
        "beds": "7",
        "lat": 52.4411627366,
        "lon": -1.932371829,
        "price": "\u00a3910 pw",
        "receptions": "1",
        "source": "King & Co",
        "title": "92 Hubert Road",
        "url": "https://www.kingandcoproperties.com/properties/14632294/lettings"
    },
    {
        "baths": "6",
        "beds": "6",
        "lat": 52.4461763863,
        "lon": -1.9348142717,
        "price": "\u00a3906 pw",
        "receptions": "1",
        "source": "King & Co",
        "title": "29 North Road Part Bills Included",
        "url": "https://www.kingandcoproperties.com/properties/14715679/lettings"
    },
    {
        "baths": "4",
        "beds": "6",
        "lat": 52.4398299701,
        "lon": -1.9291536444,
        "price": "\u00a3900 pw",
        "receptions": "1",
        "source": "King & Co",
        "title": "277 Tiverton Road BILLS INCLUDED",
        "url": "https://www.kingandcoproperties.com/properties/14601740/lettings"
    },
    {
        "baths": "3",
        "beds": "7",
        "lat": 52.4448440559,
        "lon": -1.9338540408,
        "price": "\u00a3896 pw",
        "receptions": "1",
        "source": "King & Co",
        "title": "9 Tiverton Road part bills inc.",
        "url": "https://www.kingandcoproperties.com/properties/14501572/lettings"
    },
    {
        "baths": "3",
        "beds": "9",
        "lat": 52.4405880624,
        "lon": -1.9299830301,
        "price": "\u00a3882 pw",
        "receptions": "1",
        "source": "King & Co",
        "title": "229 Tiverton Road Part Bills Inc.",
        "url": "https://www.kingandcoproperties.com/properties/14710596/lettings"
    },
    {
        "baths": "3",
        "beds": "8",
        "lat": 52.4413508342,
        "lon": -1.9344184716,
        "price": "\u00a3880 pw",
        "receptions": "1",
        "source": "King & Co",
        "title": "67 Heeley Road ",
        "url": "https://www.kingandcoproperties.com/properties/16590146/lettings"
    },
    {
        "baths": "4",
        "beds": "8",
        "lat": 52.4374780966,
        "lon": -1.9303633559,
        "price": "\u00a3880 pw",
        "receptions": "1",
        "source": "King & Co",
        "title": "224 HEELEY ROAD",
        "url": "https://www.kingandcoproperties.com/properties/11763710/lettings"
    },
    {
        "baths": "3",
        "beds": "8",
        "lat": 52.4408777208,
        "lon": -1.9302084804,
        "price": "\u00a3880 pw",
        "receptions": "1",
        "source": "King & Co",
        "title": "207 TIVERTON ROAD ",
        "url": "https://www.kingandcoproperties.com/properties/11718796/lettings"
    },
    {
        "baths": "4",
        "beds": "7",
        "lat": 52.4407605224,
        "lon": -1.9319683313,
        "price": "\u00a3875 pw",
        "receptions": "1",
        "source": "King & Co",
        "title": "120 Hubert Road",
        "url": "https://www.kingandcoproperties.com/properties/12731148/lettings"
    },
    {
        "baths": "7",
        "beds": "7",
        "lat": 52.4442724153,
        "lon": -1.9337064028,
        "price": "\u00a3875 pw",
        "receptions": "1",
        "source": "King & Co",
        "title": "34 TIVERTON ROAD",
        "url": "https://www.kingandcoproperties.com/properties/11819526/lettings"
    },
    {
        "baths": "3",
        "beds": "7",
        "lat": 52.4402013404,
        "lon": -1.9309169054,
        "price": "\u00a3875 pw",
        "receptions": "1",
        "source": "King & Co",
        "title": "149 HUBERT ROAD",
        "url": "https://www.kingandcoproperties.com/properties/11799677/lettings"
    },
    {
        "baths": "3",
        "beds": "8",
        "lat": 52.4407233418,
        "lon": -1.930122883,
        "price": "\u00a3872 pw",
        "receptions": "2",
        "source": "King & Co",
        "title": "229 Tiverton Road Part Bills Inc.",
        "url": "https://www.kingandcoproperties.com/properties/16269794/lettings"
    },
    {
        "baths": "6",
        "beds": "6",
        "lat": 52.4429815711,
        "lon": -1.9331499456,
        "price": "\u00a3870 pw",
        "receptions": "1",
        "source": "King & Co",
        "title": "3 Totnes Grove All Bills Included",
        "url": "https://www.kingandcoproperties.com/properties/17551825/lettings"
    },
    {
        "baths": "6",
        "beds": "6",
        "lat": 52.4420659636,
        "lon": -1.9284168535,
        "price": "\u00a3870 pw",
        "receptions": "1",
        "source": "King & Co",
        "title": "5 Elliott Villas",
        "url": "https://www.kingandcoproperties.com/properties/14601576/lettings"
    },
    {
        "baths": "6",
        "beds": "6",
        "lat": 52.4444061921,
        "lon": -1.9290708459,
        "price": "\u00a3864 pw",
        "receptions": "1",
        "source": "King & Co",
        "title": "87 Alton Road Part Bills Inc.",
        "url": "https://www.kingandcoproperties.com/properties/14702243/lettings"
    },
    {
        "baths": "7",
        "beds": "7",
        "lat": 52.4407889576,
        "lon": -1.9285943455,
        "price": "\u00a3861 pw",
        "receptions": "1",
        "source": "King & Co",
        "title": "241 Dawlish Road Partial Bills Inc",
        "url": "https://www.kingandcoproperties.com/properties/14828579/lettings"
    },
    {
        "baths": "6",
        "beds": "6",
        "lat": 52.4430701394,
        "lon": -1.9308253498,
        "price": "\u00a3858 pw",
        "receptions": "1",
        "source": "King & Co",
        "title": "121 Dawlish Road All Bills Included",
        "url": "https://www.kingandcoproperties.com/properties/17859921/lettings"
    },
    {
        "baths": "6",
        "beds": "6",
        "lat": 52.4453825656,
        "lon": -1.9278827439,
        "price": "\u00a3858 pw",
        "receptions": "1",
        "source": "King & Co",
        "title": "9 Croydon Road Part Bills Inc.",
        "url": "https://www.kingandcoproperties.com/properties/14702450/lettings"
    },
    {
        "baths": "4",
        "beds": "8",
        "lat": 52.4379093069,
        "lon": -1.9307057086,
        "price": "\u00a3856 pw",
        "receptions": "1",
        "source": "King & Co",
        "title": "214 HEELEY ROAD",
        "url": "https://www.kingandcoproperties.com/properties/11717097/lettings"
    },
    {
        "baths": "7",
        "beds": "7",
        "lat": 52.4425860701,
        "lon": -1.9332535232,
        "price": "\u00a3840 pw",
        "receptions": "1",
        "source": "King & Co",
        "title": "4 Dartmouth Road",
        "url": "https://www.kingandcoproperties.com/properties/18097006/lettings"
    },
    {
        "baths": "6",
        "beds": "6",
        "lat": 52.444814967,
        "lon": -1.9321614527,
        "price": "\u00a3840 pw",
        "receptions": "1",
        "source": "King & Co",
        "title": "3 Dawlish Road",
        "url": "https://www.kingandcoproperties.com/properties/17914168/lettings"
    },
    {
        "baths": "4",
        "beds": "8",
        "lat": 52.4379261204,
        "lon": -1.92789136,
        "price": "\u00a3840 pw",
        "receptions": "1",
        "source": "King & Co",
        "title": "138 Raddlebarn Road ",
        "url": "https://www.kingandcoproperties.com/properties/16590558/lettings"
    },
    {
        "baths": "3",
        "beds": "7",
        "lat": 52.4424519585,
        "lon": -1.9348777119,
        "price": "\u00a3840 pw",
        "receptions": "1",
        "source": "King & Co",
        "title": "32 Dartmouth Road",
        "url": "https://www.kingandcoproperties.com/properties/14833563/lettings"
    },
    {
        "baths": "4",
        "beds": "7",
        "lat": 52.4438733572,
        "lon": -1.9313889742,
        "price": "\u00a3840 pw",
        "receptions": "1",
        "source": "King & Co",
        "title": "102 Dawlish Road",
        "url": "https://www.kingandcoproperties.com/properties/14632582/lettings"
    },
    {
        "baths": "6",
        "beds": "6",
        "lat": 52.4454364447,
        "lon": -1.927832365,
        "price": "\u00a3840 pw",
        "receptions": "1",
        "source": "King & Co",
        "title": "7 CROYDON ROAD",
        "url": "https://www.kingandcoproperties.com/properties/11879910/lettings"
    },
    {
        "baths": "6",
        "beds": "6",
        "lat": 52.4453060717,
        "lon": -1.9132256726,
        "price": "\u00a3828 pw",
        "receptions": "1",
        "source": "King & Co",
        "title": "8 First Avenue ALL BILLS INCLUDED",
        "url": "https://www.kingandcoproperties.com/properties/17552038/lettings"
    },
    {
        "baths": "6",
        "beds": "6",
        "lat": 52.4458549646,
        "lon": -1.934017539,
        "price": "\u00a3828 pw",
        "receptions": "1",
        "source": "King & Co",
        "title": "6 NORTH ROAD (BILLS INC.)",
        "url": "https://www.kingandcoproperties.com/properties/12232909/lettings"
    },
    {
        "baths": "6",
        "beds": "6",
        "lat": 52.4407524356,
        "lon": -1.9338300127,
        "price": "\u00a3828 pw",
        "receptions": "1",
        "source": "King & Co",
        "title": "88 HEELEY ROAD",
        "url": "https://www.kingandcoproperties.com/properties/11851760/lettings"
    },
    {
        "baths": "6",
        "beds": "6",
        "lat": 52.4416826666,
        "lon": -1.9280844927,
        "price": "\u00a3828 pw",
        "receptions": "1",
        "source": "King & Co",
        "title": "37 TEIGNMOUTH ROAD",
        "url": "https://www.kingandcoproperties.com/properties/11810537/lettings"
    },
    {
        "baths": "6",
        "beds": "6",
        "lat": 52.4408847841,
        "lon": -1.9291090965,
        "price": "\u00a3828 pw",
        "receptions": "1",
        "source": "King & Co",
        "title": "73 Teignmouth Road ",
        "url": "https://www.kingandcoproperties.com/properties/11798742/lettings"
    },
    {
        "baths": "7",
        "beds": "7",
        "lat": 52.4398323873,
        "lon": -1.9310582459,
        "price": "\u00a3826 pw",
        "receptions": "1",
        "source": "King & Co",
        "title": "172 Hubert Road",
        "url": "https://www.kingandcoproperties.com/properties/17121916/lettings"
    },
    {
        "baths": "5",
        "beds": "8",
        "lat": 52.4433835353,
        "lon": -1.9287063485,
        "price": "\u00a3824 pw",
        "receptions": "1",
        "source": "King & Co",
        "title": "28 ROOKERY ROAD",
        "url": "https://www.kingandcoproperties.com/properties/15155755/lettings"
    },
    {
        "baths": "6",
        "beds": "6",
        "lat": 52.4408269185,
        "lon": -1.9291037321,
        "price": "\u00a3822 pw",
        "receptions": "1",
        "source": "King & Co",
        "title": "168 DAWLISH ROAD ",
        "url": "https://www.kingandcoproperties.com/properties/16083007/lettings"
    },
    {
        "baths": "3",
        "beds": "7",
        "lat": 52.4446292473,
        "lon": -1.9306018041,
        "price": "\u00a3819 pw",
        "receptions": "1",
        "source": "King & Co",
        "title": "53 Harrow Road Part Bills Inc.",
        "url": "https://www.kingandcoproperties.com/properties/14705105/lettings"
    },
    {
        "baths": "2",
        "beds": "8",
        "lat": 52.4407233418,
        "lon": -1.930122883,
        "price": "\u00a3816 pw",
        "receptions": "1",
        "source": "King & Co",
        "title": "209 Tiverton Road",
        "url": "https://www.kingandcoproperties.com/properties/18137379/lettings"
    },
    {
        "baths": "7",
        "beds": "7",
        "lat": 52.4401847233,
        "lon": -1.9314624169,
        "price": "\u00a3812 pw",
        "receptions": "1",
        "source": "King & Co",
        "title": "102 Hubert Road",
        "url": "https://www.kingandcoproperties.com/properties/18096392/lettings"
    },
    {
        "baths": "3",
        "beds": "7",
        "lat": 52.4390215326,
        "lon": -1.9287711382,
        "price": "\u00a3812 pw",
        "receptions": "1",
        "source": "King & Co",
        "title": "298 Tiverton Road Part Bills Inc.",
        "url": "https://www.kingandcoproperties.com/properties/14711016/lettings"
    },
    {
        "baths": "4",
        "beds": "7",
        "lat": 52.442106826,
        "lon": -1.9284877297,
        "price": "\u00a3812 pw",
        "receptions": "0",
        "source": "King & Co",
        "title": "19 Coronation Road",
        "url": "https://www.kingandcoproperties.com/properties/14710855/lettings"
    },
    {
        "baths": "3",
        "beds": "7",
        "lat": 52.4402536618,
        "lon": -1.9313943386,
        "price": "\u00a3812 pw",
        "receptions": "1",
        "source": "King & Co",
        "title": "150 HUBERT ROAD",
        "url": "https://www.kingandcoproperties.com/properties/11799250/lettings"
    },
    {
        "baths": "6",
        "beds": "6",
        "lat": 52.4384396173,
        "lon": -1.9296704644,
        "price": "\u00a3810 pw",
        "receptions": "1",
        "source": "King & Co",
        "title": "278 Hubert Road",
        "url": "https://www.kingandcoproperties.com/properties/17832401/lettings"
    },
    {
        "baths": "6",
        "beds": "6",
        "lat": 52.4384396173,
        "lon": -1.9296704644,
        "price": "\u00a3810 pw",
        "receptions": "1",
        "source": "King & Co",
        "title": "274 Hubert Road",
        "url": "https://www.kingandcoproperties.com/properties/17832154/lettings"
    },
    {
        "baths": "4",
        "beds": "6",
        "lat": 52.4410879526,
        "lon": -1.9323559688,
        "price": "\u00a3810 pw",
        "receptions": "1",
        "source": "King & Co",
        "title": "94 Hubert Road",
        "url": "https://www.kingandcoproperties.com/properties/14601721/lettings"
    },
    {
        "baths": "4",
        "beds": "6",
        "lat": 52.4410414188,
        "lon": -1.929250824,
        "price": "\u00a3810 pw",
        "receptions": "1",
        "source": "King & Co",
        "title": "158 DAWLISH ROAD ",
        "url": "https://www.kingandcoproperties.com/properties/12684461/lettings"
    },
    {
        "baths": "6",
        "beds": "6",
        "lat": 52.4398939508,
        "lon": -1.9306218624,
        "price": "\u00a3810 pw",
        "receptions": "1",
        "source": "King & Co",
        "title": "179 HUBERT ROAD",
        "url": "https://www.kingandcoproperties.com/properties/11797227/lettings"
    },
    {
        "baths": "7",
        "beds": "7",
        "lat": 52.4412644523,
        "lon": -1.9330936895,
        "price": "\u00a3805 pw",
        "receptions": "1",
        "source": "King & Co",
        "title": "68 Exeter Road",
        "url": "https://www.kingandcoproperties.com/properties/17209402/lettings"
    },
    {
        "baths": "2",
        "beds": "7",
        "lat": 52.4412356722,
        "lon": -1.9333187653,
        "price": "\u00a3805 pw",
        "receptions": "1",
        "source": "King & Co",
        "title": "45 Exeter Road",
        "url": "https://www.kingandcoproperties.com/properties/14632792/lettings"
    },
    {
        "baths": "4",
        "beds": "7",
        "lat": 52.4399226707,
        "lon": -1.9292879883,
        "price": "\u00a3805 pw",
        "receptions": "1",
        "source": "King & Co",
        "title": "275 Tiverton Road",
        "url": "https://www.kingandcoproperties.com/properties/14632753/lettings"
    },
    {
        "baths": "4",
        "beds": "7",
        "lat": 52.4405596001,
        "lon": -1.9269308648,
        "price": "\u00a3805 pw",
        "receptions": "1",
        "source": "King & Co",
        "title": "91 Teignmouth Road",
        "url": "https://www.kingandcoproperties.com/properties/13424257/lettings"
    },
    {
        "baths": "3",
        "beds": "7",
        "lat": 52.4394913976,
        "lon": -1.9302248955,
        "price": "\u00a3805 pw",
        "receptions": "1",
        "source": "King & Co",
        "title": "191 Hubert Road",
        "url": "https://www.kingandcoproperties.com/properties/12689418/lettings"
    },
    {
        "baths": "3",
        "beds": "7",
        "lat": 52.4401719096,
        "lon": -1.9295167923,
        "price": "\u00a3805 pw",
        "receptions": "1",
        "source": "King & Co",
        "title": "257 TIVERTON ROAD ",
        "url": "https://www.kingandcoproperties.com/properties/11822066/lettings"
    },
    {
        "baths": "3",
        "beds": "7",
        "lat": 52.4406722309,
        "lon": -1.9304394722,
        "price": "\u00a3805 pw",
        "receptions": "1",
        "source": "King & Co",
        "title": "214 TIVERTON ROAD",
        "url": "https://www.kingandcoproperties.com/properties/11796489/lettings"
    },
    {
        "baths": "3",
        "beds": "6",
        "lat": 52.4440563244,
        "lon": -1.9332417975,
        "price": "\u00a3798 pw",
        "receptions": "1",
        "source": "King & Co",
        "title": "35 Tiverton Road Part Bills Included",
        "url": "https://www.kingandcoproperties.com/properties/14503872/lettings"
    },
    {
        "baths": "6",
        "beds": "6",
        "lat": 52.4434282331,
        "lon": -1.9341329909,
        "price": "\u00a3792 pw",
        "receptions": "1",
        "source": "King & Co",
        "title": "41 Hubert Road Part Bills Inc.",
        "url": "https://www.kingandcoproperties.com/properties/14715433/lettings"
    },
    {
        "baths": "6",
        "beds": "6",
        "lat": 52.4401847233,
        "lon": -1.9314624169,
        "price": "\u00a3792 pw",
        "receptions": "0",
        "source": "King & Co",
        "title": "114 Hubert Road",
        "url": "https://www.kingandcoproperties.com/properties/14710901/lettings"
    },
    {
        "baths": "3",
        "beds": "7",
        "lat": 52.4385126616,
        "lon": -1.9297882782,
        "price": "\u00a3784 pw",
        "receptions": "1",
        "source": "King & Co",
        "title": "246 Hubert Road",
        "url": "https://www.kingandcoproperties.com/properties/17124850/lettings"
    },
    {
        "baths": "3",
        "beds": "7",
        "lat": 52.4394365589,
        "lon": -1.9287844327,
        "price": "\u00a3784 pw",
        "receptions": "1",
        "source": "King & Co",
        "title": "302 Tiverton Road Part Bills Inc.",
        "url": "https://www.kingandcoproperties.com/properties/14712763/lettings"
    },
    {
        "baths": "3",
        "beds": "7",
        "lat": 52.4401817198,
        "lon": -1.931437254,
        "price": "\u00a3784 pw",
        "receptions": "1",
        "source": "King & Co",
        "title": "152 HUBERT ROAD",
        "url": "https://www.kingandcoproperties.com/properties/11798856/lettings"
    },
    {
        "baths": "6",
        "beds": "6",
        "lat": 52.4384396173,
        "lon": -1.9296704644,
        "price": "\u00a3780 pw",
        "receptions": "1",
        "source": "King & Co",
        "title": "282 Hubert Road",
        "url": "https://www.kingandcoproperties.com/properties/17832614/lettings"
    },
    {
        "baths": "6",
        "beds": "6",
        "lat": 52.4439430185,
        "lon": -1.9285731213,
        "price": "\u00a3780 pw",
        "receptions": "1",
        "source": "King & Co",
        "title": "11 Rookery Road",
        "url": "https://www.kingandcoproperties.com/properties/14881547/lettings"
    },
    {
        "baths": "2",
        "beds": "6",
        "lat": 52.4407233418,
        "lon": -1.930122883,
        "price": "\u00a3780 pw",
        "receptions": "1",
        "source": "King & Co",
        "title": "217 Tiverton Road",
        "url": "https://www.kingandcoproperties.com/properties/12689526/lettings"
    },
    {
        "baths": "3",
        "beds": "6",
        "lat": 52.4400144534,
        "lon": -1.9324041693,
        "price": "\u00a3780 pw",
        "receptions": "1",
        "source": "King & Co",
        "title": "149 Heeley Road",
        "url": "https://www.kingandcoproperties.com/properties/12684457/lettings"
    },
    {
        "baths": "6",
        "beds": "6",
        "lat": 52.4458974703,
        "lon": -1.9300478697,
        "price": "\u00a3780 pw",
        "receptions": "1",
        "source": "King & Co",
        "title": "11 ALTON ROAD ",
        "url": "https://www.kingandcoproperties.com/properties/11802106/lettings"
    },
    {
        "baths": "8",
        "beds": "7",
        "lat": 52.4405813802,
        "lon": -1.9338962565,
        "price": "\u00a3770 pw",
        "receptions": "1",
        "source": "King & Co",
        "title": "112 Heeley Road",
        "url": "https://www.kingandcoproperties.com/properties/17193239/lettings"
    },
    {
        "baths": "3",
        "beds": "7",
        "lat": 52.4415922445,
        "lon": -1.9341693752,
        "price": "\u00a3770 pw",
        "receptions": "1",
        "source": "King & Co",
        "title": "67 Heeley Road ",
        "url": "https://www.kingandcoproperties.com/properties/17131535/lettings"
    },
    {
        "baths": "3",
        "beds": "7",
        "lat": 52.4416211273,
        "lon": -1.928091308,
        "price": "\u00a3770 pw",
        "receptions": "1",
        "source": "King & Co",
        "title": "29 Teignmouth Road",
        "url": "https://www.kingandcoproperties.com/properties/15477081/lettings"
    },
    {
        "baths": "3",
        "beds": "7",
        "lat": 52.4403456507,
        "lon": -1.9301665866,
        "price": "\u00a3770 pw",
        "receptions": "1",
        "source": "King & Co",
        "title": "224 Tiverton Road Partial Bills Included",
        "url": "https://www.kingandcoproperties.com/properties/14881888/lettings"
    },
    {
        "baths": "7",
        "beds": "7",
        "lat": 52.4407524356,
        "lon": -1.9338300127,
        "price": "\u00a3770 pw",
        "receptions": "1",
        "source": "King & Co",
        "title": "126 Heeley Road ",
        "url": "https://www.kingandcoproperties.com/properties/14076586/lettings"
    },
    {
        "baths": "3",
        "beds": "7",
        "lat": 52.4384396173,
        "lon": -1.9296704644,
        "price": "\u00a3770 pw",
        "receptions": "0",
        "source": "King & Co",
        "title": "276 Hubert Road",
        "url": "https://www.kingandcoproperties.com/properties/13422493/lettings"
    },
    {
        "baths": "3",
        "beds": "7",
        "lat": 52.44184781,
        "lon": -1.9313568665,
        "price": "\u00a3770 pw",
        "receptions": "1",
        "source": "King & Co",
        "title": "32 Exeter Road",
        "url": "https://www.kingandcoproperties.com/properties/13422431/lettings"
    },
    {
        "baths": "3",
        "beds": "7",
        "lat": 52.4412644523,
        "lon": -1.9330936895,
        "price": "\u00a3770 pw",
        "receptions": "0",
        "source": "King & Co",
        "title": "53 Exeter Road",
        "url": "https://www.kingandcoproperties.com/properties/12424222/lettings"
    },
    {
        "baths": "2",
        "beds": "7",
        "lat": 52.4409654232,
        "lon": -1.9278527501,
        "price": "\u00a3770 pw",
        "receptions": "1",
        "source": "King & Co",
        "title": "52 TEIGNMOUTH ROAD ",
        "url": "https://www.kingandcoproperties.com/properties/11727991/lettings"
    },
    {
        "baths": "6",
        "beds": "6",
        "lat": 52.4381253841,
        "lon": -1.9303770495,
        "price": "\u00a3768 pw",
        "receptions": "1",
        "source": "King & Co",
        "title": "251 HEELEY ROAD",
        "url": "https://www.kingandcoproperties.com/properties/11765995/lettings"
    },
    {
        "baths": "6",
        "beds": "6",
        "lat": 52.4390794005,
        "lon": -1.9287349866,
        "price": "\u00a3762 pw",
        "receptions": "1",
        "source": "King & Co",
        "title": "296 Tiverton Road Part Bills Inc.",
        "url": "https://www.kingandcoproperties.com/properties/14710888/lettings"
    },
    {
        "baths": "3",
        "beds": "7",
        "lat": 52.4397958473,
        "lon": -1.9266092777,
        "price": "\u00a3756 pw",
        "receptions": "1",
        "source": "King & Co",
        "title": "126 TEIGNMOUTH ROAD",
        "url": "https://www.kingandcoproperties.com/properties/11765910/lettings"
    },
    {
        "baths": "4",
        "beds": "6",
        "lat": 52.4396342348,
        "lon": -1.9279180031,
        "price": "\u00a3750 pw",
        "receptions": "1",
        "source": "King & Co",
        "title": "252 Dawlish Road",
        "url": "https://www.kingandcoproperties.com/properties/17831853/lettings"
    },
    {
        "baths": "6",
        "beds": "6",
        "lat": 52.4392835727,
        "lon": -1.9300457706,
        "price": "\u00a3750 pw",
        "receptions": "1",
        "source": "King & Co",
        "title": "211 Hubert Road",
        "url": "https://www.kingandcoproperties.com/properties/14838991/lettings"
    },
    {
        "baths": "6",
        "beds": "6",
        "lat": 52.4384396173,
        "lon": -1.9296704644,
        "price": "\u00a3750 pw",
        "receptions": "1",
        "source": "King & Co",
        "title": "284 Hubert Road ",
        "url": "https://www.kingandcoproperties.com/properties/12770016/lettings"
    },
    {
        "baths": "5",
        "beds": "6",
        "lat": 52.4415878371,
        "lon": -1.9329875708,
        "price": "\u00a3750 pw",
        "receptions": "1",
        "source": "King & Co",
        "title": "76 EXETER ROAD",
        "url": "https://www.kingandcoproperties.com/properties/11892955/lettings"
    },
    {
        "baths": "3",
        "beds": "6",
        "lat": 52.4381253841,
        "lon": -1.9303770495,
        "price": "\u00a3750 pw",
        "receptions": "1",
        "source": "King & Co",
        "title": "267 HEELEY ROAD",
        "url": "https://www.kingandcoproperties.com/properties/11764084/lettings"
    },
    {
        "baths": "3",
        "beds": "7",
        "lat": 52.4404624563,
        "lon": -1.9273409308,
        "price": "\u00a3749 pw",
        "receptions": "1",
        "source": "King & Co",
        "title": "84 TEIGNMOUTH ROAD",
        "url": "https://www.kingandcoproperties.com/properties/11717316/lettings"
    },
    {
        "baths": "3",
        "beds": "7",
        "lat": 52.4416898932,
        "lon": -1.9283434332,
        "price": "\u00a3749 pw",
        "receptions": "1",
        "source": "King & Co",
        "title": "33a TEIGNMOUTH ROAD",
        "url": "https://www.kingandcoproperties.com/properties/11717168/lettings"
    },
    {
        "baths": "6",
        "beds": "6",
        "lat": 52.4381333149,
        "lon": -1.9288900882,
        "price": "\u00a3744 pw",
        "receptions": "1",
        "source": "King & Co",
        "title": "261 Hubert Road",
        "url": "https://www.kingandcoproperties.com/properties/14917347/lettings"
    },
    {
        "baths": "6",
        "beds": "6",
        "lat": 52.4409648289,
        "lon": -1.927318314,
        "price": "\u00a3744 pw",
        "receptions": "1",
        "source": "King & Co",
        "title": "79 Teignmouth Road Part Bills Included",
        "url": "https://www.kingandcoproperties.com/properties/14708199/lettings"
    },
    {
        "baths": "3",
        "beds": "7",
        "lat": 52.439286985,
        "lon": -1.9316471656,
        "price": "\u00a3742 pw",
        "receptions": "1",
        "source": "King & Co",
        "title": "179 Heeley Road",
        "url": "https://www.kingandcoproperties.com/properties/17144786/lettings"
    },
    {
        "baths": "3",
        "beds": "7",
        "lat": 52.4414712547,
        "lon": -1.9309416284,
        "price": "\u00a3735 pw",
        "receptions": "1",
        "source": "King & Co",
        "title": "183 Tiverton Road",
        "url": "https://www.kingandcoproperties.com/properties/15924462/lettings"
    },
    {
        "baths": "3",
        "beds": "7",
        "lat": 52.4404807679,
        "lon": -1.9303880619,
        "price": "\u00a3735 pw",
        "receptions": "1",
        "source": "King & Co",
        "title": "200 Tiverton Road ",
        "url": "https://www.kingandcoproperties.com/properties/14708796/lettings"
    },
    {
        "baths": "3",
        "beds": "7",
        "lat": 52.4424868898,
        "lon": -1.9327387668,
        "price": "\u00a3735 pw",
        "receptions": "1",
        "source": "King & Co",
        "title": "10 Newton Grove",
        "url": "https://www.kingandcoproperties.com/properties/13422417/lettings"
    },
    {
        "baths": "2",
        "beds": "7",
        "lat": 52.4411907932,
        "lon": -1.9290040621,
        "price": "\u00a3735 pw",
        "receptions": "1",
        "source": "King & Co",
        "title": "217 Dawlish Road ",
        "url": "https://www.kingandcoproperties.com/properties/12689521/lettings"
    },
    {
        "baths": "3",
        "beds": "7",
        "lat": 52.4393347578,
        "lon": -1.9270437956,
        "price": "\u00a3735 pw",
        "receptions": "1",
        "source": "King & Co",
        "title": "329 DAWLISH ROAD",
        "url": "https://www.kingandcoproperties.com/properties/11816717/lettings"
    },
    {
        "baths": "3",
        "beds": "7",
        "lat": 52.4388115299,
        "lon": -1.9295972586,
        "price": "\u00a3735 pw",
        "receptions": "1",
        "source": "King & Co",
        "title": "219 HUBERT ROAD",
        "url": "https://www.kingandcoproperties.com/properties/11802043/lettings"
    },
    {
        "baths": "3",
        "beds": "7",
        "lat": 52.4403092532,
        "lon": -1.931501627,
        "price": "\u00a3735 pw",
        "receptions": "1",
        "source": "King & Co",
        "title": "146 HUBERT ROAD",
        "url": "https://www.kingandcoproperties.com/properties/11799738/lettings"
    },
    {
        "baths": "3",
        "beds": "7",
        "lat": 52.4402732823,
        "lon": -1.9314587116,
        "price": "\u00a3735 pw",
        "receptions": "1",
        "source": "King & Co",
        "title": "148 HUBERT ROAD",
        "url": "https://www.kingandcoproperties.com/properties/11799710/lettings"
    },
    {
        "baths": "2",
        "beds": "7",
        "lat": 52.4417295581,
        "lon": -1.9290001986,
        "price": "\u00a3735 pw",
        "receptions": "1",
        "source": "King & Co",
        "title": "15 TEIGNMOUTH ROAD ",
        "url": "https://www.kingandcoproperties.com/properties/11728386/lettings"
    },
    {
        "baths": "3",
        "beds": "7",
        "lat": 52.442696349,
        "lon": -1.9324701189,
        "price": "\u00a3735 pw",
        "receptions": "1",
        "source": "King & Co",
        "title": "108 TIVERTON ROAD ",
        "url": "https://www.kingandcoproperties.com/properties/11719334/lettings"
    },
    {
        "baths": "2",
        "beds": "7",
        "lat": 52.4427022676,
        "lon": -1.9319387196,
        "price": "\u00a3735 pw",
        "receptions": "1",
        "source": "King & Co",
        "title": "121 TIVERTON ROAD ",
        "url": "https://www.kingandcoproperties.com/properties/11719127/lettings"
    },
    {
        "baths": "3",
        "beds": "6",
        "lat": 52.4401847233,
        "lon": -1.9314624169,
        "price": "\u00a3732 pw",
        "receptions": "1",
        "source": "King & Co",
        "title": "152 Hubert Road",
        "url": "https://www.kingandcoproperties.com/properties/16392859/lettings"
    },
    {
        "baths": "6",
        "beds": "6",
        "lat": 52.4433895635,
        "lon": -1.9362223148,
        "price": "\u00a3732 pw",
        "receptions": "1",
        "source": "King & Co",
        "title": "147 HUBERT ROAD ",
        "url": "https://www.kingandcoproperties.com/properties/12842648/lettings"
    },
    {
        "baths": "3",
        "beds": "6",
        "lat": 52.4442266383,
        "lon": -1.9321238995,
        "price": "\u00a3732 pw",
        "receptions": "1",
        "source": "King & Co",
        "title": "56 DAWLISH ROAD",
        "url": "https://www.kingandcoproperties.com/properties/11851635/lettings"
    },
    {
        "baths": "3",
        "beds": "6",
        "lat": 52.4400144534,
        "lon": -1.9324041693,
        "price": "\u00a3732 pw",
        "receptions": "1",
        "source": "King & Co",
        "title": "143 HEELEY ROAD ",
        "url": "https://www.kingandcoproperties.com/properties/11849527/lettings"
    },
    {
        "baths": "2",
        "beds": "7",
        "lat": 52.4455021231,
        "lon": -1.9297908439,
        "price": "\u00a3728 pw",
        "receptions": "1",
        "source": "King & Co",
        "title": "33 Alton Road Part Bills Inc.",
        "url": "https://www.kingandcoproperties.com/properties/14702007/lettings"
    },
    {
        "baths": "3",
        "beds": "6",
        "lat": 52.4461162532,
        "lon": -1.9297302028,
        "price": "\u00a3726 pw",
        "receptions": "1",
        "source": "King & Co",
        "title": "6 Alton Road Part Bills Included",
        "url": "https://www.kingandcoproperties.com/properties/14811712/lettings"
    },
    {
        "baths": "4",
        "beds": "6",
        "lat": 52.4458353466,
        "lon": -1.9300317764,
        "price": "\u00a3726 pw",
        "receptions": "1",
        "source": "King & Co",
        "title": "15 ALTON ROAD",
        "url": "https://www.kingandcoproperties.com/properties/11779607/lettings"
    },
    {
        "baths": "3",
        "beds": "6",
        "lat": 52.4425753623,
        "lon": -1.9328189416,
        "price": "\u00a3720 pw",
        "receptions": "1",
        "source": "King & Co",
        "title": "10 Newton Grove",
        "url": "https://www.kingandcoproperties.com/properties/18119371/lettings"
    },
    {
        "baths": "3",
        "beds": "6",
        "lat": 52.4419546429,
        "lon": -1.9308856517,
        "price": "\u00a3720 pw",
        "receptions": "1",
        "source": "King & Co",
        "title": "32 Exeter Road",
        "url": "https://www.kingandcoproperties.com/properties/18094445/lettings"
    },
    {
        "baths": "2",
        "beds": "6",
        "lat": 52.4385832736,
        "lon": -1.9293613204,
        "price": "\u00a3720 pw",
        "receptions": "1",
        "source": "King & Co",
        "title": "225 Hubert Road",
        "url": "https://www.kingandcoproperties.com/properties/17874685/lettings"
    },
    {
        "baths": "2",
        "beds": "6",
        "lat": 52.4454765341,
        "lon": -1.9297201739,
        "price": "\u00a3720 pw",
        "receptions": "1",
        "source": "King & Co",
        "title": "33 Alton Road Part Bills Inc.",
        "url": "https://www.kingandcoproperties.com/properties/16269198/lettings"
    },
    {
        "baths": "3",
        "beds": "6",
        "lat": 52.4403612902,
        "lon": -1.931562035,
        "price": "\u00a3720 pw",
        "receptions": "1",
        "source": "King & Co",
        "title": "144 Hubert Road",
        "url": "https://www.kingandcoproperties.com/properties/14838870/lettings"
    },
    {
        "baths": "6",
        "beds": "6",
        "lat": 52.4399097326,
        "lon": -1.9323002256,
        "price": "\u00a3720 pw",
        "receptions": "1",
        "source": "King & Co",
        "title": "147 Heeley Road",
        "url": "https://www.kingandcoproperties.com/properties/14811552/lettings"
    },
    {
        "baths": "3",
        "beds": "6",
        "lat": 52.4399407276,
        "lon": -1.9292532361,
        "price": "\u00a3720 pw",
        "receptions": "1",
        "source": "King & Co",
        "title": "273 Tiverton Road",
        "url": "https://www.kingandcoproperties.com/properties/14612443/lettings"
    },
    {
        "baths": "4",
        "beds": "6",
        "lat": 52.4396833834,
        "lon": -1.9304152154,
        "price": "\u00a3720 pw",
        "receptions": "1",
        "source": "King & Co",
        "title": "187 Hubert Road",
        "url": "https://www.kingandcoproperties.com/properties/14612389/lettings"
    },
    {
        "baths": "3",
        "beds": "6",
        "lat": 52.4405596001,
        "lon": -1.9269308648,
        "price": "\u00a3720 pw",
        "receptions": "1",
        "source": "King & Co",
        "title": "80 Teignmouth Road ",
        "url": "https://www.kingandcoproperties.com/properties/13373407/lettings"
    },
    {
        "baths": "3",
        "beds": "6",
        "lat": 52.4402579783,
        "lon": -1.9309645945,
        "price": "\u00a3720 pw",
        "receptions": "1",
        "source": "King & Co",
        "title": "133 Hubert Road",
        "url": "https://www.kingandcoproperties.com/properties/12684415/lettings"
    },
    {
        "baths": "3",
        "beds": "6",
        "lat": 52.4383537003,
        "lon": -1.9291144609,
        "price": "\u00a3720 pw",
        "receptions": "1",
        "source": "King & Co",
        "title": "259 HUBERT ROAD",
        "url": "https://www.kingandcoproperties.com/properties/11851491/lettings"
    },
    {
        "baths": "3",
        "beds": "6",
        "lat": 52.439316,
        "lon": -1.93048,
        "price": "\u00a3720 pw",
        "receptions": "1",
        "source": "King & Co",
        "title": "204 Hubert Road",
        "url": "https://www.kingandcoproperties.com/properties/11828059/lettings"
    },
    {
        "baths": "4",
        "beds": "6",
        "lat": 52.4464402319,
        "lon": -1.9330251217,
        "price": "\u00a3720 pw",
        "receptions": "1",
        "source": "King & Co",
        "title": "16 GRANGE ROAD ",
        "url": "https://www.kingandcoproperties.com/properties/11787477/lettings"
    },
    {
        "baths": "6",
        "beds": "6",
        "lat": 52.4405250782,
        "lon": -1.9282722473,
        "price": "\u00a3720 pw",
        "receptions": "1",
        "source": "King & Co",
        "title": "259 DAWLISH ROAD",
        "url": "https://www.kingandcoproperties.com/properties/11766054/lettings"
    },
    {
        "baths": "6",
        "beds": "6",
        "lat": 52.4382490529,
        "lon": -1.9294846058,
        "price": "\u00a3720 pw",
        "receptions": "1",
        "source": "King & Co",
        "title": "266 HUBERT ROAD",
        "url": "https://www.kingandcoproperties.com/properties/11765866/lettings"
    },
    {
        "baths": "3",
        "beds": "6",
        "lat": 52.4380659193,
        "lon": -1.9303590059,
        "price": "\u00a3720 pw",
        "receptions": "1",
        "source": "King & Co",
        "title": "273 HEELEY ROAD",
        "url": "https://www.kingandcoproperties.com/properties/11763567/lettings"
    },
    {
        "baths": "3",
        "beds": "6",
        "lat": 52.440518538,
        "lon": -1.9302785397,
        "price": "\u00a3720 pw",
        "receptions": "1",
        "source": "King & Co",
        "title": "210 TIVERTON ROAD",
        "url": "https://www.kingandcoproperties.com/properties/11731239/lettings"
    },
    {
        "baths": "3",
        "beds": "6",
        "lat": 52.4403877352,
        "lon": -1.9301819801,
        "price": "\u00a3720 pw",
        "receptions": "1",
        "source": "King & Co",
        "title": "202 TIVERTON ROAD",
        "url": "https://www.kingandcoproperties.com/properties/11731203/lettings"
    },
    {
        "baths": "3",
        "beds": "6",
        "lat": 52.4430602306,
        "lon": -1.9292659162,
        "price": "\u00a3714 pw",
        "receptions": "0",
        "source": "King & Co",
        "title": "31 Selly Hill Road",
        "url": "https://www.kingandcoproperties.com/properties/14710660/lettings"
    },
    {
        "baths": "3",
        "beds": "6",
        "lat": 52.4430602306,
        "lon": -1.9292659162,
        "price": "\u00a3714 pw",
        "receptions": "0",
        "source": "King & Co",
        "title": "29 Selly Hill Road",
        "url": "https://www.kingandcoproperties.com/properties/14710595/lettings"
    },
    {
        "baths": "4",
        "beds": "6",
        "lat": 52.4460707624,
        "lon": -1.9301819801,
        "price": "\u00a3714 pw",
        "receptions": "1",
        "source": "King & Co",
        "title": "1 ALTON ROAD ",
        "url": "https://www.kingandcoproperties.com/properties/11819759/lettings"
    },
    {
        "baths": "3",
        "beds": "6",
        "lat": 52.4456489748,
        "lon": -1.9307023287,
        "price": "\u00a3714 pw",
        "receptions": "1",
        "source": "King & Co",
        "title": "16 ALTON ROAD",
        "url": "https://www.kingandcoproperties.com/properties/11779655/lettings"
    },
    {
        "baths": "2",
        "beds": "7",
        "lat": 52.443467187,
        "lon": -1.931170899,
        "price": "\u00a3700 pw",
        "receptions": "1",
        "source": "King & Co",
        "title": "127 Dawlish Road",
        "url": "https://www.kingandcoproperties.com/properties/18095857/lettings"
    },
    {
        "baths": "3",
        "beds": "7",
        "lat": 52.4436660786,
        "lon": -1.9274909082,
        "price": "\u00a3700 pw",
        "receptions": "1",
        "source": "King & Co",
        "title": "82 Bournbrook Road",
        "url": "https://www.kingandcoproperties.com/properties/16078661/lettings"
    },
    {
        "baths": "5",
        "beds": "5",
        "lat": 52.4439231152,
        "lon": -1.933440981,
        "price": "\u00a3700 pw",
        "receptions": "1",
        "source": "King & Co",
        "title": "54 Tiverton Road",
        "url": "https://www.kingandcoproperties.com/properties/14839404/lettings"
    },
    {
        "baths": "5",
        "beds": "5",
        "lat": 52.4414472274,
        "lon": -1.9281383703,
        "price": "\u00a3700 pw",
        "receptions": "1",
        "source": "King & Co",
        "title": "26 Teignmouth Road Part Bills Inc.",
        "url": "https://www.kingandcoproperties.com/properties/14705703/lettings"
    },
    {
        "baths": "3",
        "beds": "7",
        "lat": 52.4381253841,
        "lon": -1.9303770495,
        "price": "\u00a3700 pw",
        "receptions": "1",
        "source": "King & Co",
        "title": "237 HEELEY ROAD",
        "url": "https://www.kingandcoproperties.com/properties/12023371/lettings"
    },
    {
        "baths": "3",
        "beds": "7",
        "lat": 52.4439388956,
        "lon": -1.9293826818,
        "price": "\u00a3700 pw",
        "receptions": "1",
        "source": "King & Co",
        "title": "13 ST EDWARDS ROAD",
        "url": "https://www.kingandcoproperties.com/properties/11880016/lettings"
    },
    {
        "baths": "5",
        "beds": "5",
        "lat": 52.4415024903,
        "lon": -1.9289452136,
        "price": "\u00a3700 pw",
        "receptions": "1",
        "source": "King & Co",
        "title": "2 TEIGNMOUTH ROAD ",
        "url": "https://www.kingandcoproperties.com/properties/11728479/lettings"
    },
    {
        "baths": "3",
        "beds": "6",
        "lat": 52.4436734713,
        "lon": -1.9331543343,
        "price": "\u00a3696 pw",
        "receptions": "1",
        "source": "King & Co",
        "title": "62 Tiverton Road Part Bills Inc.",
        "url": "https://www.kingandcoproperties.com/properties/14708748/lettings"
    },
    {
        "baths": "2",
        "beds": "6",
        "lat": 52.4402000824,
        "lon": -1.9270638548,
        "price": "\u00a3696 pw",
        "receptions": "1",
        "source": "King & Co",
        "title": "102 TEIGNMOUTH ROAD",
        "url": "https://www.kingandcoproperties.com/properties/11810794/lettings"
    },
    {
        "baths": "2",
        "beds": "6",
        "lat": 52.4402000824,
        "lon": -1.9270638548,
        "price": "\u00a3696 pw",
        "receptions": "1",
        "source": "King & Co",
        "title": "100 TEIGNMOUTH ROAD",
        "url": "https://www.kingandcoproperties.com/properties/11810069/lettings"
    },
    {
        "baths": "3",
        "beds": "6",
        "lat": 52.4385832736,
        "lon": -1.9293613204,
        "price": "\u00a3690 pw",
        "receptions": "1",
        "source": "King & Co",
        "title": "219 Hubert Road",
        "url": "https://www.kingandcoproperties.com/properties/16392889/lettings"
    },
    {
        "baths": "3",
        "beds": "6",
        "lat": 52.4401847233,
        "lon": -1.9314624169,
        "price": "\u00a3690 pw",
        "receptions": "1",
        "source": "King & Co",
        "title": "146 Hubert Road",
        "url": "https://www.kingandcoproperties.com/properties/16392781/lettings"
    },
    {
        "baths": "4",
        "beds": "6",
        "lat": 52.440385176,
        "lon": -1.9281745215,
        "price": "\u00a3690 pw",
        "receptions": "1",
        "source": "King & Co",
        "title": "267 Dawlish Road",
        "url": "https://www.kingandcoproperties.com/properties/16326329/lettings"
    },
    {
        "baths": "3",
        "beds": "6",
        "lat": 52.4434675888,
        "lon": -1.9341496233,
        "price": "\u00a3690 pw",
        "receptions": "1",
        "source": "King & Co",
        "title": "31 Hubert Road ",
        "url": "https://www.kingandcoproperties.com/properties/14708684/lettings"
    },
    {
        "baths": "3",
        "beds": "6",
        "lat": 52.4399557986,
        "lon": -1.9311811613,
        "price": "\u00a3690 pw",
        "receptions": "1",
        "source": "King & Co",
        "title": "158 Hubert Road",
        "url": "https://www.kingandcoproperties.com/properties/14623642/lettings"
    },
    {
        "baths": "5",
        "beds": "6",
        "lat": 52.4411860533,
        "lon": -1.9317507227,
        "price": "\u00a3690 pw",
        "receptions": "1",
        "source": "King & Co",
        "title": "103 Hubert Road",
        "url": "https://www.kingandcoproperties.com/properties/14612517/lettings"
    },
    {
        "baths": "3",
        "beds": "6",
        "lat": 52.440787678,
        "lon": -1.9320830832,
        "price": "\u00a3690 pw",
        "receptions": "1",
        "source": "King & Co",
        "title": "116 Hubert road",
        "url": "https://www.kingandcoproperties.com/properties/14612505/lettings"
    },
    {
        "baths": "3",
        "beds": "6",
        "lat": 52.4434675888,
        "lon": -1.9341496233,
        "price": "\u00a3690 pw",
        "receptions": "1",
        "source": "King & Co",
        "title": "29 Hubert Road",
        "url": "https://www.kingandcoproperties.com/properties/14519947/lettings"
    },
    {
        "baths": "3",
        "beds": "6",
        "lat": 52.4384396173,
        "lon": -1.9296704644,
        "price": "\u00a3690 pw",
        "receptions": "1",
        "source": "King & Co",
        "title": "238 Hubert Road ",
        "url": "https://www.kingandcoproperties.com/properties/13422048/lettings"
    },
    {
        "baths": "3",
        "beds": "6",
        "lat": 52.4407233418,
        "lon": -1.930122883,
        "price": "\u00a3690 pw",
        "receptions": "1",
        "source": "King & Co",
        "title": "175 Tiverton Road",
        "url": "https://www.kingandcoproperties.com/properties/13410398/lettings"
    },
    {
        "baths": "2",
        "beds": "6",
        "lat": 52.4412527273,
        "lon": -1.9289478418,
        "price": "\u00a3690 pw",
        "receptions": "1",
        "source": "King & Co",
        "title": "215 Dawlish Road ",
        "url": "https://www.kingandcoproperties.com/properties/12689512/lettings"
    },
    {
        "baths": "3",
        "beds": "6",
        "lat": 52.4384092942,
        "lon": -1.9292110205,
        "price": "\u00a3690 pw",
        "receptions": "1",
        "source": "King & Co",
        "title": "251 HUBERT ROAD",
        "url": "https://www.kingandcoproperties.com/properties/11877556/lettings"
    },
    {
        "baths": "5",
        "beds": "5",
        "lat": 52.4407233418,
        "lon": -1.930122883,
        "price": "\u00a3690 pw",
        "receptions": "1",
        "source": "King & Co",
        "title": "187 TIVERTON ROAD",
        "url": "https://www.kingandcoproperties.com/properties/11842101/lettings"
    },
    {
        "baths": "2",
        "beds": "6",
        "lat": 52.4403779249,
        "lon": -1.9311261177,
        "price": "\u00a3690 pw",
        "receptions": "1",
        "source": "King & Co",
        "title": "123 HUBERT ROAD",
        "url": "https://www.kingandcoproperties.com/properties/11801716/lettings"
    },
    {
        "baths": "3",
        "beds": "6",
        "lat": 52.4401261282,
        "lon": -1.9284009933,
        "price": "\u00a3690 pw",
        "receptions": "1",
        "source": "King & Co",
        "title": "206 DAWLISH ROAD",
        "url": "https://www.kingandcoproperties.com/properties/11797132/lettings"
    },
    {
        "baths": "3",
        "beds": "6",
        "lat": 52.4401032375,
        "lon": -1.9283312559,
        "price": "\u00a3690 pw",
        "receptions": "1",
        "source": "King & Co",
        "title": "208 DAWLISH ROAD",
        "url": "https://www.kingandcoproperties.com/properties/11797046/lettings"
    },
    {
        "baths": "3",
        "beds": "6",
        "lat": 52.4384877795,
        "lon": -1.9292700291,
        "price": "\u00a3690 pw",
        "receptions": "1",
        "source": "King & Co",
        "title": "247 HUBERT ROAD",
        "url": "https://www.kingandcoproperties.com/properties/11796361/lettings"
    },
    {
        "baths": "3",
        "beds": "6",
        "lat": 52.4432620391,
        "lon": -1.9335508347,
        "price": "\u00a3690 pw",
        "receptions": "1",
        "source": "King & Co",
        "title": "8 SCHOOL TERRACE ",
        "url": "https://www.kingandcoproperties.com/properties/11789528/lettings"
    },
    {
        "baths": "3",
        "beds": "6",
        "lat": 52.4381253841,
        "lon": -1.9303770495,
        "price": "\u00a3690 pw",
        "receptions": "1",
        "source": "King & Co",
        "title": "271 HEELEY ROAD",
        "url": "https://www.kingandcoproperties.com/properties/11763458/lettings"
    },
    {
        "baths": "2",
        "beds": "6",
        "lat": 52.4417661819,
        "lon": -1.9318476853,
        "price": "\u00a3690 pw",
        "receptions": "1",
        "source": "King & Co",
        "title": "48 EXETER ROAD ",
        "url": "https://www.kingandcoproperties.com/properties/11728115/lettings"
    },
    {
        "baths": "2",
        "beds": "6",
        "lat": 52.4432235116,
        "lon": -1.9340443611,
        "price": "\u00a3678 pw",
        "receptions": "1",
        "source": "King & Co",
        "title": "43 Hubert Road Part Bills Inc.",
        "url": "https://www.kingandcoproperties.com/properties/14715494/lettings"
    },
    {
        "baths": "3",
        "beds": "3",
        "lat": 52.4430602306,
        "lon": -1.9292659162,
        "price": "\u00a3675 pw",
        "receptions": "1",
        "source": "King & Co",
        "title": "Elliott Apartments Selly Hill Road BI...",
        "url": "https://www.kingandcoproperties.com/properties/17895960/lettings"
    },
    {
        "baths": "5",
        "beds": "5",
        "lat": 52.4429108828,
        "lon": -1.9303566737,
        "price": "\u00a3675 pw",
        "receptions": "1",
        "source": "King & Co",
        "title": "5 Unity Place",
        "url": "https://www.kingandcoproperties.com/properties/14833685/lettings"
    },
    {
        "baths": "5",
        "beds": "5",
        "lat": 52.4420467703,
        "lon": -1.9330015649,
        "price": "\u00a3675 pw",
        "receptions": "1",
        "source": "King & Co",
        "title": "80 Hubert Road",
        "url": "https://www.kingandcoproperties.com/properties/14597140/lettings"
    },
    {
        "baths": "5",
        "beds": "5",
        "lat": 52.441080986,
        "lon": -1.9288086891,
        "price": "\u00a3675 pw",
        "receptions": "1",
        "source": "King & Co",
        "title": "225 DAWLISH ROAD",
        "url": "https://www.kingandcoproperties.com/properties/11787689/lettings"
    },
    {
        "baths": "3",
        "beds": "6",
        "lat": 52.4392011084,
        "lon": -1.9302482181,
        "price": "\u00a3672 pw",
        "receptions": "1",
        "source": "King & Co",
        "title": "148 Hubert Road",
        "url": "https://www.kingandcoproperties.com/properties/16392811/lettings"
    },
    {
        "baths": "5",
        "beds": "6",
        "lat": 52.4379318389,
        "lon": -1.9286745787,
        "price": "\u00a3672 pw",
        "receptions": "1",
        "source": "King & Co",
        "title": "273 HUBERT ROAD",
        "url": "https://www.kingandcoproperties.com/properties/11766262/lettings"
    },
    {
        "baths": "3",
        "beds": "6",
        "lat": 52.4423665138,
        "lon": -1.9286500891,
        "price": "\u00a3666 pw",
        "receptions": "1",
        "source": "King & Co",
        "title": "16 Coronation Road",
        "url": "https://www.kingandcoproperties.com/properties/16070757/lettings"
    },
    {
        "baths": "2",
        "beds": "6",
        "lat": 52.4453537298,
        "lon": -1.9310571873,
        "price": "\u00a3666 pw",
        "receptions": "1",
        "source": "King & Co",
        "title": "27 Harrow Road Part Bills Inc.",
        "url": "https://www.kingandcoproperties.com/properties/14703008/lettings"
    },
    {
        "baths": "3",
        "beds": "7",
        "lat": 52.4384188204,
        "lon": -1.9281973786,
        "price": "\u00a3665 pw",
        "receptions": "1",
        "source": "King & Co",
        "title": "334 Tiverton Road",
        "url": "https://www.kingandcoproperties.com/properties/17209585/lettings"
    },
    {
        "baths": "2",
        "beds": "7",
        "lat": 52.439468834,
        "lon": -1.927215457,
        "price": "\u00a3665 pw",
        "receptions": "1",
        "source": "King & Co",
        "title": "321 Dawlish Road ",
        "url": "https://www.kingandcoproperties.com/properties/12399420/lettings"
    },
    {
        "baths": "3",
        "beds": "7",
        "lat": 52.4401065076,
        "lon": -1.932477951,
        "price": "\u00a3665 pw",
        "receptions": "1",
        "source": "King & Co",
        "title": "153 Heeley Road",
        "url": "https://www.kingandcoproperties.com/properties/11980755/lettings"
    },
    {
        "baths": "3",
        "beds": "7",
        "lat": 52.4378566229,
        "lon": -1.9510281086,
        "price": "\u00a3665 pw",
        "receptions": "1",
        "source": "King & Co",
        "title": "83 WEOLEY PARK ROAD",
        "url": "https://www.kingandcoproperties.com/properties/11819664/lettings"
    },
    {
        "baths": "2",
        "beds": "6",
        "lat": 52.4384396173,
        "lon": -1.9296704644,
        "price": "\u00a3660 pw",
        "receptions": "1",
        "source": "King & Co",
        "title": "232 Hubert Road",
        "url": "https://www.kingandcoproperties.com/properties/17874351/lettings"
    },
    {
        "baths": "3",
        "beds": "6",
        "lat": 52.4461794963,
        "lon": -1.9288342669,
        "price": "\u00a3660 pw",
        "receptions": "1",
        "source": "King & Co",
        "title": "26 Luton Road",
        "url": "https://www.kingandcoproperties.com/properties/17137115/lettings"
    },
    {
        "baths": "6",
        "beds": "6",
        "lat": 52.443940886,
        "lon": -1.9346915901,
        "price": "\u00a3660 pw",
        "receptions": "1",
        "source": "King & Co",
        "title": "13 Hubert Road",
        "url": "https://www.kingandcoproperties.com/properties/14613000/lettings"
    },
    {
        "baths": "3",
        "beds": "5",
        "lat": 52.4425867359,
        "lon": -1.9279667086,
        "price": "\u00a3660 pw",
        "receptions": "1",
        "source": "King & Co",
        "title": "69 Rookery Road",
        "url": "https://www.kingandcoproperties.com/properties/14612954/lettings"
    },
    {
        "baths": "3",
        "beds": "6",
        "lat": 52.4377967628,
        "lon": -1.9288945198,
        "price": "\u00a3660 pw",
        "receptions": "1",
        "source": "King & Co",
        "title": "280 HUBERT ROAD",
        "url": "https://www.kingandcoproperties.com/properties/13422411/lettings"
    },
    {
        "baths": "2",
        "beds": "6",
        "lat": 52.4397539044,
        "lon": -1.9304954486,
        "price": "\u00a3660 pw",
        "receptions": "1",
        "source": "King & Co",
        "title": "173 Hubert Road ",
        "url": "https://www.kingandcoproperties.com/properties/13391788/lettings"
    },
    {
        "baths": "2",
        "beds": "6",
        "lat": 52.4383244318,
        "lon": -1.9306405305,
        "price": "\u00a3660 pw",
        "receptions": "1",
        "source": "King & Co",
        "title": "201 Heeley Road",
        "url": "https://www.kingandcoproperties.com/properties/12689426/lettings"
    },
    {
        "baths": "3",
        "beds": "6",
        "lat": 52.4452704654,
        "lon": -1.9436365205,
        "price": "\u00a3660 pw",
        "receptions": "1",
        "source": "King & Co",
        "title": "182 HARBORNE LANE",
        "url": "https://www.kingandcoproperties.com/properties/11804390/lettings"
    },
    {
        "baths": "2",
        "beds": "6",
        "lat": 52.4458680433,
        "lon": -1.9300103188,
        "price": "\u00a3660 pw",
        "receptions": "1",
        "source": "King & Co",
        "title": "13 ALTON ROAD",
        "url": "https://www.kingandcoproperties.com/properties/11802274/lettings"
    },
    {
        "baths": "3",
        "beds": "6",
        "lat": 52.4400144534,
        "lon": -1.9324041693,
        "price": "\u00a3660 pw",
        "receptions": "1",
        "source": "King & Co",
        "title": "185 HEELEY ROAD",
        "url": "https://www.kingandcoproperties.com/properties/11763131/lettings"
    },
    {
        "baths": "3",
        "beds": "6",
        "lat": 52.4391483586,
        "lon": -1.9273549318,
        "price": "\u00a3660 pw",
        "receptions": "1",
        "source": "King & Co",
        "title": "266 DAWLISH ROAD",
        "url": "https://www.kingandcoproperties.com/properties/11731692/lettings"
    },
    {
        "baths": "2",
        "beds": "6",
        "lat": 52.4410486781,
        "lon": -1.9279047847,
        "price": "\u00a3660 pw",
        "receptions": "1",
        "source": "King & Co",
        "title": "48 TEIGNMOUTH ROAD ",
        "url": "https://www.kingandcoproperties.com/properties/11728063/lettings"
    },
    {
        "baths": "2",
        "beds": "7",
        "lat": 52.443961379,
        "lon": -1.9329719233,
        "price": "\u00a3658 pw",
        "receptions": "1",
        "source": "King & Co",
        "title": "45 Tiverton Road Part Bills Inc.",
        "url": "https://www.kingandcoproperties.com/properties/14733298/lettings"
    },
    {
        "baths": "2",
        "beds": "6",
        "lat": 52.443961379,
        "lon": -1.9329719233,
        "price": "\u00a3654 pw",
        "receptions": "2",
        "source": "King & Co",
        "title": "45 Tiverton Road Part Bills Inc.",
        "url": "https://www.kingandcoproperties.com/properties/16269588/lettings"
    },
    {
        "baths": "2",
        "beds": "6",
        "lat": 52.440238382,
        "lon": -1.9309768762,
        "price": "\u00a3654 pw",
        "receptions": "1",
        "source": "King & Co",
        "title": "155 Hubert Road Part Bills Inc.",
        "url": "https://www.kingandcoproperties.com/properties/14715157/lettings"
    },
    {
        "baths": "2",
        "beds": "6",
        "lat": 52.4456418668,
        "lon": -1.9312522981,
        "price": "\u00a3654 pw",
        "receptions": "1",
        "source": "King & Co",
        "title": "7 Harrow Road Part Bills Inc.",
        "url": "https://www.kingandcoproperties.com/properties/14702571/lettings"
    },
    {
        "baths": "3",
        "beds": "7",
        "lat": 52.4391485007,
        "lon": -1.9287988928,
        "price": "\u00a3651 pw",
        "receptions": "1",
        "source": "King & Co",
        "title": "292 Tiverton Road Part Bills Inc.",
        "url": "https://www.kingandcoproperties.com/properties/14710831/lettings"
    },
    {
        "baths": "4",
        "beds": "5",
        "lat": 52.4395264169,
        "lon": -1.9302762071,
        "price": "\u00a3650 pw",
        "receptions": "1",
        "source": "King & Co",
        "title": "173 Hubert Road",
        "url": "https://www.kingandcoproperties.com/properties/17895782/lettings"
    },
    {
        "baths": "3",
        "beds": "6",
        "lat": 52.4391847568,
        "lon": -1.9288198845,
        "price": "\u00a3648 pw",
        "receptions": "1",
        "source": "King & Co",
        "title": "292 Tiverton Road Part Bills Included",
        "url": "https://www.kingandcoproperties.com/properties/17783752/lettings"
    },
    {
        "baths": "3",
        "beds": "6",
        "lat": 52.4397508897,
        "lon": -1.927564757,
        "price": "\u00a3648 pw",
        "receptions": "1",
        "source": "King & Co",
        "title": "305 Dawlish Road ",
        "url": "https://www.kingandcoproperties.com/properties/14710601/lettings"
    },
    {
        "baths": "3",
        "beds": "6",
        "lat": 52.4450986177,
        "lon": -1.9278021633,
        "price": "\u00a3648 pw",
        "receptions": "1",
        "source": "King & Co",
        "title": "44 BOURNBROOK ROAD",
        "url": "https://www.kingandcoproperties.com/properties/11716768/lettings"
    },
    {
        "baths": "2",
        "beds": "7",
        "lat": 52.4413731547,
        "lon": -1.9278239684,
        "price": "\u00a3644 pw",
        "receptions": "1",
        "source": "King & Co",
        "title": "53 Teignmouth Road Part Bills Inc.",
        "url": "https://www.kingandcoproperties.com/properties/14733149/lettings"
    },
    {
        "baths": "2",
        "beds": "7",
        "lat": 52.4354561831,
        "lon": -1.9399774075,
        "price": "\u00a3644 pw",
        "receptions": "1",
        "source": "King & Co",
        "title": "110 OAK TREE LANE",
        "url": "https://www.kingandcoproperties.com/properties/12287931/lettings"
    },
    {
        "baths": "3",
        "beds": "5",
        "lat": 52.4426636499,
        "lon": -1.9328695536,
        "price": "\u00a3640 pw",
        "receptions": "1",
        "source": "King & Co",
        "title": "4 NEWTON GROVE",
        "url": "https://www.kingandcoproperties.com/properties/11849252/lettings"
    },
    {
        "baths": "2",
        "beds": "6",
        "lat": 52.4413703112,
        "lon": -1.9277773215,
        "price": "\u00a3636 pw",
        "receptions": "2",
        "source": "King & Co",
        "title": "53 Teignmouth Road Part Bills Inc.",
        "url": "https://www.kingandcoproperties.com/properties/16269548/lettings"
    },
    {
        "baths": "2",
        "beds": "6",
        "lat": 52.443572675,
        "lon": -1.9360249976,
        "price": "\u00a3630 pw",
        "receptions": "1",
        "source": "King & Co",
        "title": "658 Bristol Road",
        "url": "https://www.kingandcoproperties.com/properties/17809445/lettings"
    },
    {
        "baths": "2",
        "beds": "6",
        "lat": 52.4385832736,
        "lon": -1.9293613204,
        "price": "\u00a3630 pw",
        "receptions": "1",
        "source": "King & Co",
        "title": "215 Hubert  Road ",
        "url": "https://www.kingandcoproperties.com/properties/16595946/lettings"
    },
    {
        "baths": "3",
        "beds": "6",
        "lat": 52.4400144534,
        "lon": -1.9324041693,
        "price": "\u00a3630 pw",
        "receptions": "1",
        "source": "King & Co",
        "title": "153 Heeley Road ",
        "url": "https://www.kingandcoproperties.com/properties/16407337/lettings"
    },
    {
        "baths": "3",
        "beds": "6",
        "lat": 52.4414883156,
        "lon": -1.9309416284,
        "price": "\u00a3630 pw",
        "receptions": "1",
        "source": "King & Co",
        "title": "183 Tiverton Road",
        "url": "https://www.kingandcoproperties.com/properties/16321343/lettings"
    },
    {
        "baths": "2",
        "beds": "6",
        "lat": 52.4435897351,
        "lon": -1.9359130445,
        "price": "\u00a3630 pw",
        "receptions": "1",
        "source": "King & Co",
        "title": "660 Bristol Road",
        "url": "https://www.kingandcoproperties.com/properties/16072227/lettings"
    },
    {
        "baths": "3",
        "beds": "6",
        "lat": 52.4433895635,
        "lon": -1.9362223148,
        "price": "\u00a3630 pw",
        "receptions": "1",
        "source": "King & Co",
        "title": "9 Exeter Road ",
        "url": "https://www.kingandcoproperties.com/properties/13639627/lettings"
    },
    {
        "baths": "3",
        "beds": "6",
        "lat": 52.4434675888,
        "lon": -1.9341496233,
        "price": "\u00a3630 pw",
        "receptions": "1",
        "source": "King & Co",
        "title": "27 Hubert Road ",
        "url": "https://www.kingandcoproperties.com/properties/13639336/lettings"
    },
    {
        "baths": "2",
        "beds": "6",
        "lat": 52.4399312956,
        "lon": -1.9306862354,
        "price": "\u00a3630 pw",
        "receptions": "1",
        "source": "King & Co",
        "title": "171 Hubert Road",
        "url": "https://www.kingandcoproperties.com/properties/12689397/lettings"
    },
    {
        "baths": "2",
        "beds": "6",
        "lat": 52.4417069953,
        "lon": -1.9286166427,
        "price": "\u00a3630 pw",
        "receptions": "1",
        "source": "King & Co",
        "title": "27 TEIGNMOUTH ROAD",
        "url": "https://www.kingandcoproperties.com/properties/11728173/lettings"
    },
    {
        "baths": "2",
        "beds": "6",
        "lat": 52.4405282501,
        "lon": -1.9329035104,
        "price": "\u00a3630 pw",
        "receptions": "1",
        "source": "King & Co",
        "title": "107 HEELEY ROAD ",
        "url": "https://www.kingandcoproperties.com/properties/11719778/lettings"
    },
    {
        "baths": "2",
        "beds": "5",
        "lat": 52.440238382,
        "lon": -1.9309768762,
        "price": "\u00a3625 pw",
        "receptions": "1",
        "source": "King & Co",
        "title": "123 Hubert Road",
        "url": "https://www.kingandcoproperties.com/properties/17845617/lettings"
    },
    {
        "baths": "3",
        "beds": "5",
        "lat": 52.4421811972,
        "lon": -1.9326803845,
        "price": "\u00a3625 pw",
        "receptions": "1",
        "source": "King & Co",
        "title": "14 Rose Cottages",
        "url": "https://www.kingandcoproperties.com/properties/17826436/lettings"
    },
    {
        "baths": "3",
        "beds": "5",
        "lat": 52.4424868898,
        "lon": -1.9327387668,
        "price": "\u00a3625 pw",
        "receptions": "1",
        "source": "King & Co",
        "title": "5 Rose Cottages",
        "url": "https://www.kingandcoproperties.com/properties/17826328/lettings"
    },
    {
        "baths": "2",
        "beds": "5",
        "lat": 52.4393683124,
        "lon": -1.9276289837,
        "price": "\u00a3625 pw",
        "receptions": "1",
        "source": "King & Co",
        "title": "250 Dawlish Road",
        "url": "https://www.kingandcoproperties.com/properties/16095629/lettings"
    },
    {
        "baths": "3",
        "beds": "5",
        "lat": 52.4393718669,
        "lon": -1.9271676438,
        "price": "\u00a3625 pw",
        "receptions": "1",
        "source": "King & Co",
        "title": "325 Dawlish Road",
        "url": "https://www.kingandcoproperties.com/properties/14839116/lettings"
    },
    {
        "baths": "3",
        "beds": "5",
        "lat": 52.4401643741,
        "lon": -1.9297054797,
        "price": "\u00a3625 pw",
        "receptions": "1",
        "source": "King & Co",
        "title": "245 Tiverton Road",
        "url": "https://www.kingandcoproperties.com/properties/14598015/lettings"
    },
    {
        "baths": "2",
        "beds": "5",
        "lat": 52.4385709566,
        "lon": -1.9293726524,
        "price": "\u00a3625 pw",
        "receptions": "1",
        "source": "King & Co",
        "title": "239 Hubert Road",
        "url": "https://www.kingandcoproperties.com/properties/14597832/lettings"
    },
    {
        "baths": "2",
        "beds": "5",
        "lat": 52.4420517464,
        "lon": -1.9324485636,
        "price": "\u00a3625 pw",
        "receptions": "1",
        "source": "King & Co",
        "title": "6 Rose Cottages Hubert Road",
        "url": "https://www.kingandcoproperties.com/properties/14597769/lettings"
    },
    {
        "baths": "2",
        "beds": "5",
        "lat": 52.4397357055,
        "lon": -1.9304676937,
        "price": "\u00a3625 pw",
        "receptions": "1",
        "source": "King & Co",
        "title": "175 Hubert Road",
        "url": "https://www.kingandcoproperties.com/properties/14597712/lettings"
    },
    {
        "baths": "3",
        "beds": "5",
        "lat": 52.4419849255,
        "lon": -1.9346619689,
        "price": "\u00a3625 pw",
        "receptions": "1",
        "source": "King & Co",
        "title": "45 Heeley Road",
        "url": "https://www.kingandcoproperties.com/properties/14597594/lettings"
    },
    {
        "baths": "3",
        "beds": "5",
        "lat": 52.4430425311,
        "lon": -1.9337577144,
        "price": "\u00a3625 pw",
        "receptions": "1",
        "source": "King & Co",
        "title": "4 School Terrace, Hubert Road",
        "url": "https://www.kingandcoproperties.com/properties/14597570/lettings"
    },
    {
        "baths": "2",
        "beds": "5",
        "lat": 52.4419050247,
        "lon": -1.9325530529,
        "price": "\u00a3625 pw",
        "receptions": "1",
        "source": "King & Co",
        "title": "3 Rose Cottages ",
        "url": "https://www.kingandcoproperties.com/properties/13402699/lettings"
    },
    {
        "baths": "5",
        "beds": "5",
        "lat": 52.4400574562,
        "lon": -1.9307774305,
        "price": "\u00a3625 pw",
        "receptions": "1",
        "source": "King & Co",
        "title": "151 HUBERT ROAD",
        "url": "https://www.kingandcoproperties.com/properties/11892920/lettings"
    },
    {
        "baths": "3",
        "beds": "5",
        "lat": 52.4402863627,
        "lon": -1.9296187162,
        "price": "\u00a3625 pw",
        "receptions": "1",
        "source": "King & Co",
        "title": "249 TIVERTON ROAD",
        "url": "https://www.kingandcoproperties.com/properties/11827984/lettings"
    },
    {
        "baths": "2",
        "beds": "5",
        "lat": 52.4453350838,
        "lon": -1.9325315952,
        "price": "\u00a3625 pw",
        "receptions": "1",
        "source": "King & Co",
        "title": "21 DAWLISH ROAD",
        "url": "https://www.kingandcoproperties.com/properties/11804149/lettings"
    },
    {
        "baths": "2",
        "beds": "5",
        "lat": 52.4422031791,
        "lon": -1.9338497939,
        "price": "\u00a3625 pw",
        "receptions": "1",
        "source": "King & Co",
        "title": "11 FLORENCE BUILDINGS ",
        "url": "https://www.kingandcoproperties.com/properties/11728449/lettings"
    },
    {
        "baths": "2",
        "beds": "5",
        "lat": 52.443079613,
        "lon": -1.930724913,
        "price": "\u00a3625 pw",
        "receptions": "1",
        "source": "King & Co",
        "title": "20 LIME AVENUE ",
        "url": "https://www.kingandcoproperties.com/properties/11728367/lettings"
    },
    {
        "baths": "2",
        "beds": "6",
        "lat": 52.4430602306,
        "lon": -1.9292659162,
        "price": "\u00a3624 pw",
        "receptions": "0",
        "source": "King & Co",
        "title": "11 Selly Hill Road",
        "url": "https://www.kingandcoproperties.com/properties/14710565/lettings"
    },
    {
        "baths": "3",
        "beds": "6",
        "lat": 52.4436446114,
        "lon": -1.934414506,
        "price": "\u00a3624 pw",
        "receptions": "1",
        "source": "King & Co",
        "title": "25 HUBERT ROAD",
        "url": "https://www.kingandcoproperties.com/properties/11779938/lettings"
    },
    {
        "baths": "3",
        "beds": "6",
        "lat": 52.4436544209,
        "lon": -1.9344305992,
        "price": "\u00a3624 pw",
        "receptions": "1",
        "source": "King & Co",
        "title": "23 HUBERT ROAD",
        "url": "https://www.kingandcoproperties.com/properties/11779911/lettings"
    },
    {
        "baths": "2",
        "beds": "5",
        "lat": 52.4384396173,
        "lon": -1.9296704644,
        "price": "\u00a3620 pw",
        "receptions": "1",
        "source": "King & Co",
        "title": "220 Hubert Road",
        "url": "https://www.kingandcoproperties.com/properties/17826818/lettings"
    },
    {
        "baths": "3",
        "beds": "6",
        "lat": 52.4397508897,
        "lon": -1.927564757,
        "price": "\u00a3612 pw",
        "receptions": "1",
        "source": "King & Co",
        "title": "281 Dawlish Road",
        "url": "https://www.kingandcoproperties.com/properties/17209646/lettings"
    },
    {
        "baths": "3",
        "beds": "6",
        "lat": 52.445087438,
        "lon": -1.9305246032,
        "price": "\u00a3612 pw",
        "receptions": "1",
        "source": "King & Co",
        "title": "46 Harrow Road",
        "url": "https://www.kingandcoproperties.com/properties/16074890/lettings"
    },
    {
        "baths": "4",
        "beds": "6",
        "lat": 52.4433835353,
        "lon": -1.9287063485,
        "price": "\u00a3612 pw",
        "receptions": "0",
        "source": "King & Co",
        "title": "70 Rookery Road",
        "url": "https://www.kingandcoproperties.com/properties/13457449/lettings"
    },
    {
        "baths": "3",
        "beds": "6",
        "lat": 52.4410123154,
        "lon": -1.9287550449,
        "price": "\u00a3612 pw",
        "receptions": "1",
        "source": "King & Co",
        "title": "229 DAWLISH ROAD ",
        "url": "https://www.kingandcoproperties.com/properties/12154795/lettings"
    },
    {
        "baths": "2",
        "beds": "6",
        "lat": 52.4384396173,
        "lon": -1.9296704644,
        "price": "\u00a3606 pw",
        "receptions": "1",
        "source": "King & Co",
        "title": "272 Hubert Road",
        "url": "https://www.kingandcoproperties.com/properties/16595932/lettings"
    },
    {
        "baths": "3",
        "beds": "6",
        "lat": 52.442106826,
        "lon": -1.9284877297,
        "price": "\u00a3606 pw",
        "receptions": "0",
        "source": "King & Co",
        "title": "6a Coronation Road",
        "url": "https://www.kingandcoproperties.com/properties/14710796/lettings"
    },
    {
        "baths": "2",
        "beds": "5",
        "lat": 52.4456134347,
        "lon": -1.9312289745,
        "price": "\u00a3605 pw",
        "receptions": "1",
        "source": "King & Co",
        "title": "9 Harrow Road Part Bills Inc.",
        "url": "https://www.kingandcoproperties.com/properties/14702700/lettings"
    },
    {
        "baths": "2",
        "beds": "6",
        "lat": 52.4406345542,
        "lon": -1.9342122906,
        "price": "\u00a3600 pw",
        "receptions": "1",
        "source": "King & Co",
        "title": "98 Heeley Road",
        "url": "https://www.kingandcoproperties.com/properties/17192888/lettings"
    },
    {
        "baths": "2",
        "beds": "5",
        "lat": 52.4433199018,
        "lon": -1.9275442131,
        "price": "\u00a3600 pw",
        "receptions": "1",
        "source": "King & Co",
        "title": "110 Bournbrook Road",
        "url": "https://www.kingandcoproperties.com/properties/16035963/lettings"
    },
    {
        "baths": "3",
        "beds": "6",
        "lat": 52.4452466595,
        "lon": -1.9305292679,
        "price": "\u00a3600 pw",
        "receptions": "1",
        "source": "King & Co",
        "title": "38 Harrow Road",
        "url": "https://www.kingandcoproperties.com/properties/15003736/lettings"
    },
    {
        "baths": "3",
        "beds": "5",
        "lat": 52.4430602306,
        "lon": -1.9292659162,
        "price": "\u00a3600 pw",
        "receptions": "1",
        "source": "King & Co",
        "title": "35 Selly Hill Road",
        "url": "https://www.kingandcoproperties.com/properties/14710709/lettings"
    },
    {
        "baths": "3",
        "beds": "5",
        "lat": 52.4425342751,
        "lon": -1.9323128204,
        "price": "\u00a3600 pw",
        "receptions": "1",
        "source": "King & Co",
        "title": "118 Tiverton Road",
        "url": "https://www.kingandcoproperties.com/properties/14598576/lettings"
    },
    {
        "baths": "3",
        "beds": "5",
        "lat": 52.4397508897,
        "lon": -1.927564757,
        "price": "\u00a3600 pw",
        "receptions": "1",
        "source": "King & Co",
        "title": "291a DAWLISH ROAD",
        "url": "https://www.kingandcoproperties.com/properties/13362964/lettings"
    },
    {
        "baths": "2",
        "beds": "6",
        "lat": 52.4404269761,
        "lon": -1.9287496805,
        "price": "\u00a3600 pw",
        "receptions": "1",
        "source": "King & Co",
        "title": "194 DAWLISH ROAD",
        "url": "https://www.kingandcoproperties.com/properties/11834647/lettings"
    },
    {
        "baths": "3",
        "beds": "6",
        "lat": 52.448143675,
        "lon": -1.9522994757,
        "price": "\u00a3600 pw",
        "receptions": "1",
        "source": "King & Co",
        "title": "75 QUINTON ROAD",
        "url": "https://www.kingandcoproperties.com/properties/11787607/lettings"
    },
    {
        "baths": "3",
        "beds": "6",
        "lat": 52.4439565243,
        "lon": -1.9288595345,
        "price": "\u00a3594 pw",
        "receptions": "1",
        "source": "King & Co",
        "title": "8 Rookery Road",
        "url": "https://www.kingandcoproperties.com/properties/14864374/lettings"
    },
    {
        "baths": "2",
        "beds": "5",
        "lat": 52.4448936708,
        "lon": -1.9308149815,
        "price": "\u00a3590 pw",
        "receptions": "1",
        "source": "King & Co",
        "title": "41 HARROW ROAD",
        "url": "https://www.kingandcoproperties.com/properties/11816886/lettings"
    },
    {
        "baths": "2",
        "beds": "5",
        "lat": 52.4466004433,
        "lon": -1.9358575344,
        "price": "\u00a3590 pw",
        "receptions": "1",
        "source": "King & Co",
        "title": "70 Dale Road",
        "url": "https://www.kingandcoproperties.com/properties/11717043/lettings"
    },
    {
        "baths": "2",
        "beds": "6",
        "lat": 52.4440169445,
        "lon": -1.9285777857,
        "price": "\u00a3588 pw",
        "receptions": "1",
        "source": "King & Co",
        "title": "7 Rookery Road",
        "url": "https://www.kingandcoproperties.com/properties/15003901/lettings"
    },
    {
        "baths": "3",
        "beds": "3",
        "lat": 52.4430602306,
        "lon": -1.9292659162,
        "price": "\u00a3585 pw",
        "receptions": "1",
        "source": "King & Co",
        "title": "Selly Hill Road",
        "url": "https://www.kingandcoproperties.com/properties/15101732/lettings"
    },
    {
        "baths": "2",
        "beds": "5",
        "lat": 52.4451114636,
        "lon": -1.9309218033,
        "price": "\u00a3580 pw",
        "receptions": "1",
        "source": "King & Co",
        "title": "31 Harrow Road Part Bills Inc.",
        "url": "https://www.kingandcoproperties.com/properties/14704968/lettings"
    },
    {
        "baths": "2",
        "beds": "5",
        "lat": 52.4455646737,
        "lon": -1.9312110156,
        "price": "\u00a3580 pw",
        "receptions": "1",
        "source": "King & Co",
        "title": "11 Harrow Road Part Bills Inc.",
        "url": "https://www.kingandcoproperties.com/properties/14702744/lettings"
    },
    {
        "baths": "2",
        "beds": "5",
        "lat": 52.4431562659,
        "lon": -1.9334405141,
        "price": "\u00a3575 pw",
        "receptions": "1",
        "source": "King & Co",
        "title": "8 School Terrace",
        "url": "https://www.kingandcoproperties.com/properties/16392729/lettings"
    },
    {
        "baths": "2",
        "beds": "5",
        "lat": 52.445729011,
        "lon": -1.9308751563,
        "price": "\u00a3575 pw",
        "receptions": "1",
        "source": "King & Co",
        "title": "4 Harrow Road",
        "url": "https://www.kingandcoproperties.com/properties/14601488/lettings"
    },
    {
        "baths": "2",
        "beds": "5",
        "lat": 52.4422087876,
        "lon": -1.9337837051,
        "price": "\u00a3575 pw",
        "receptions": "1",
        "source": "King & Co",
        "title": "14 FLORENCE BUILDINGS ",
        "url": "https://www.kingandcoproperties.com/properties/13365065/lettings"
    },
    {
        "baths": "2",
        "beds": "5",
        "lat": 52.4434675888,
        "lon": -1.9341496233,
        "price": "\u00a3575 pw",
        "receptions": "1",
        "source": "King & Co",
        "title": "45 HUBERT ROAD",
        "url": "https://www.kingandcoproperties.com/properties/13362210/lettings"
    },
    {
        "baths": "4",
        "beds": "4",
        "lat": 52.4423922467,
        "lon": -1.9339820872,
        "price": "\u00a3560 pw",
        "receptions": "1",
        "source": "King & Co",
        "title": "11 Dartmouth Road",
        "url": "https://www.kingandcoproperties.com/properties/16626148/lettings"
    },
    {
        "baths": "2",
        "beds": "5",
        "lat": 52.4447065842,
        "lon": -1.9340420286,
        "price": "\u00a3555 pw",
        "receptions": "1",
        "source": "King & Co",
        "title": "10 Tiverton Road Part Bills Inc",
        "url": "https://www.kingandcoproperties.com/properties/14811735/lettings"
    },
    {
        "baths": "5",
        "beds": "5",
        "lat": 52.440238382,
        "lon": -1.9309768762,
        "price": "\u00a3550 pw",
        "receptions": "1",
        "source": "King & Co",
        "title": "109B Hubert Road",
        "url": "https://www.kingandcoproperties.com/properties/17199409/lettings"
    },
    {
        "baths": "3",
        "beds": "5",
        "lat": 52.4454087233,
        "lon": -1.9310983628,
        "price": "\u00a3550 pw",
        "receptions": "1",
        "source": "King & Co",
        "title": "19 Harrow Road",
        "url": "https://www.kingandcoproperties.com/properties/14864550/lettings"
    },
    {
        "baths": "2",
        "beds": "5",
        "lat": 52.4432473958,
        "lon": -1.9304446035,
        "price": "\u00a3550 pw",
        "receptions": "1",
        "source": "King & Co",
        "title": "8 Lime Avenue",
        "url": "https://www.kingandcoproperties.com/properties/14833650/lettings"
    },
    {
        "baths": "2",
        "beds": "5",
        "lat": 52.4391254674,
        "lon": -1.9369518757,
        "price": "\u00a3550 pw",
        "receptions": "1",
        "source": "King & Co",
        "title": "29 WINNIE ROAD",
        "url": "https://www.kingandcoproperties.com/properties/13401213/lettings"
    },
    {
        "baths": "2",
        "beds": "5",
        "lat": 52.4412705627,
        "lon": -1.9281654326,
        "price": "\u00a3550 pw",
        "receptions": "1",
        "source": "King & Co",
        "title": "20 Teignmouth Road",
        "url": "https://www.kingandcoproperties.com/properties/12689443/lettings"
    },
    {
        "baths": "2",
        "beds": "5",
        "lat": 52.4412281369,
        "lon": -1.9310778379,
        "price": "\u00a3550 pw",
        "receptions": "1",
        "source": "King & Co",
        "title": "166 TIVERTON ROAD",
        "url": "https://www.kingandcoproperties.com/properties/11851841/lettings"
    },
    {
        "baths": "2",
        "beds": "5",
        "lat": 52.439900491,
        "lon": -1.9296455383,
        "price": "\u00a3550 pw",
        "receptions": "1",
        "source": "King & Co",
        "title": "242 TIVERTON ROAD",
        "url": "https://www.kingandcoproperties.com/properties/11771889/lettings"
    },
    {
        "baths": "2",
        "beds": "5",
        "lat": 52.44266038,
        "lon": -1.9329553843,
        "price": "\u00a3550 pw",
        "receptions": "1",
        "source": "King & Co",
        "title": "1 NEWTON GROVE ",
        "url": "https://www.kingandcoproperties.com/properties/11771806/lettings"
    },
    {
        "baths": "2",
        "beds": "5",
        "lat": 52.4377519743,
        "lon": -1.928948164,
        "price": "\u00a3550 pw",
        "receptions": "1",
        "source": "King & Co",
        "title": "298 HUBERT ROAD",
        "url": "https://www.kingandcoproperties.com/properties/11764172/lettings"
    },
    {
        "baths": "2",
        "beds": "5",
        "lat": 52.4392170321,
        "lon": -1.9274032116,
        "price": "\u00a3550 pw",
        "receptions": "1",
        "source": "King & Co",
        "title": "262 DAWLISH ROAD",
        "url": "https://www.kingandcoproperties.com/properties/11763054/lettings"
    },
    {
        "baths": "2",
        "beds": "5",
        "lat": 52.4431541334,
        "lon": -1.9312740148,
        "price": "\u00a3550 pw",
        "receptions": "1",
        "source": "King & Co",
        "title": "82 DAWLISH ROAD",
        "url": "https://www.kingandcoproperties.com/properties/11716521/lettings"
    },
    {
        "baths": "3",
        "beds": "3",
        "lat": 52.4407233418,
        "lon": -1.930122883,
        "price": "\u00a3540 pw",
        "receptions": "1",
        "source": "King & Co",
        "title": "The Annexe, 277 Tiverton Road BILLS I...",
        "url": "https://www.kingandcoproperties.com/properties/17896120/lettings"
    },
    {
        "baths": "4",
        "beds": "4",
        "lat": 52.4431008202,
        "lon": -1.9345964296,
        "price": "\u00a3540 pw",
        "receptions": "1",
        "source": "King & Co",
        "title": "16 Hubert Croft ",
        "url": "https://www.kingandcoproperties.com/properties/15792207/lettings"
    },
    {
        "baths": "2",
        "beds": "5",
        "lat": 52.4452921511,
        "lon": -1.9306085683,
        "price": "\u00a3535 pw",
        "receptions": "1",
        "source": "King & Co",
        "title": "34 Harrow Road",
        "url": "https://www.kingandcoproperties.com/properties/16078754/lettings"
    },